{
    "type": "FeatureCollection",
    "features": [
        {
            "type": "Feature",
            "geometry": {
                "type": "Point",
                "coordinates": [
                    15.66189329197243,
                    -0.1754523572668128,
                    0
                ]
            },
            "properties": {
                "name": "Fireborne"
            }
        },
        {
            "type": "Feature",
            "geometry": {
                "type": "Point",
                "coordinates": [
                    1.977934834269217,
                    -6.618055564098405,
                    0
                ]
            },
            "properties": {
                "name": "Briarwood"
            }
        },
        {
            "type": "Feature",
            "geometry": {
                "type": "Point",
                "coordinates": [
                    35.14797172455214,
                    13.14210026693062,
                    0
                ]
            },
            "properties": {
                "name": "Faeron"
            }
        },
        {
            "type": "Feature",
            "geometry": {
                "type": "Point",
                "coordinates": [
                    19.14449077390597,
                    30.42113665073035,
                    0
                ]
            },
            "properties": {
                "name": "The Crest"
            }
        },
        {
            "type": "Feature",
            "geometry": {
                "type": "Point",
                "coordinates": [
                    22.42742702698471,
                    38.42690074613962,
                    0
                ]
            },
            "properties": {
                "name": "Ridgeraven"
            }
        },
        {
            "type": "Feature",
            "geometry": {
                "type": "Point",
                "coordinates": [
                    6.248891684791449,
                    24.78963319536074,
                    0
                ]
            },
            "properties": {
                "name": "Nazarat"
            }
        },
        {
            "type": "Feature",
            "geometry": {
                "type": "Point",
                "coordinates": [
                    4.685783019880432,
                    48.4071664988959,
                    0
                ]
            },
            "properties": {
                "name": "Zederas"
            }
        },
        {
            "type": "Feature",
            "geometry": {
                "type": "Point",
                "coordinates": [
                    28.90144349973443,
                    57.84422385507771,
                    0
                ]
            },
            "properties": {
                "name": "White Crest"
            }
        },
        {
            "type": "Feature",
            "geometry": {
                "type": "Point",
                "coordinates": [
                    -1.759850708197089,
                    24.33843850480418,
                    0
                ]
            },
            "properties": {
                "name": "Kaskade"
            }
        },
        {
            "type": "Feature",
            "geometry": {
                "type": "Point",
                "coordinates": [
                    -3.821202226518523,
                    48.23292443114403,
                    0
                ]
            },
            "properties": {
                "name": "Featherwood"
            }
        },
        {
            "type": "Feature",
            "geometry": {
                "type": "Point",
                "coordinates": [
                    -1.999213521312168,
                    40.51008137803639,
                    0
                ]
            },
            "properties": {
                "name": "Gelton"
            }
        },
        {
            "type": "Feature",
            "geometry": {
                "type": "Point",
                "coordinates": [
                    -0.09590591336207877,
                    33.08518693766699,
                    0
                ]
            },
            "properties": {
                "name": "Ardon"
            }
        },
        {
            "type": "Feature",
            "geometry": {
                "type": "Point",
                "coordinates": [
                    -7.013157401240732,
                    27.2805477054807,
                    0
                ]
            },
            "properties": {
                "name": "Cannon Ridge"
            }
        },
        {
            "type": "Feature",
            "geometry": {
                "type": "Point",
                "coordinates": [
                    1.621905064676772,
                    5.222698435882334,
                    0
                ]
            },
            "properties": {
                "name": "Mogeda"
            }
        },
        {
            "type": "Feature",
            "geometry": {
                "type": "Point",
                "coordinates": [
                    29.63821830838353,
                    -8.465852205133126,
                    0
                ]
            },
            "properties": {
                "name": "Hunter's Keep"
            }
        },
        {
            "type": "Feature",
            "geometry": {
                "type": "Point",
                "coordinates": [
                    37.57617513136277,
                    -2.575685648512252,
                    0
                ]
            },
            "properties": {
                "name": "Laine"
            }
        },
        {
            "type": "Feature",
            "geometry": {
                "type": "Point",
                "coordinates": [
                    59.79330590730158,
                    16.83290155839691,
                    0
                ]
            },
            "properties": {
                "name": "Canedon"
            }
        },
        {
            "type": "Feature",
            "geometry": {
                "type": "Point",
                "coordinates": [
                    36.83730333365303,
                    37.91892841865423,
                    0
                ]
            },
            "properties": {
                "name": "Havon"
            }
        },
        {
            "type": "Feature",
            "geometry": {
                "type": "Point",
                "coordinates": [
                    14.78842536208825,
                    51.84505381680052,
                    0
                ]
            },
            "properties": {
                "name": "Phorom"
            }
        },
        {
            "type": "Feature",
            "geometry": {
                "type": "Point",
                "coordinates": [
                    19.02941749762937,
                    -6.126739243389618,
                    0
                ]
            },
            "properties": {
                "name": "Magisteria"
            }
        },
        {
            "type": "Feature",
            "geometry": {
                "type": "Point",
                "coordinates": [
                    43.11103166763789,
                    14.03626665294913,
                    0
                ]
            },
            "properties": {
                "name": "Wynndom"
            }
        },
        {
            "type": "Feature",
            "geometry": {
                "type": "Point",
                "coordinates": [
                    26.72495811895683,
                    27.54796538325368,
                    0
                ]
            },
            "properties": {
                "name": "Wilthorn"
            }
        },
        {
            "type": "Feature",
            "geometry": {
                "type": "Point",
                "coordinates": [
                    28.42025287487232,
                    33.22631346406842,
                    0
                ]
            },
            "properties": {
                "name": "Serena"
            }
        },
        {
            "type": "Feature",
            "geometry": {
                "type": "Point",
                "coordinates": [
                    30.26019458613207,
                    45.38286260812813,
                    0
                ]
            },
            "properties": {
                "name": "Marr"
            }
        },
        {
            "type": "Feature",
            "geometry": {
                "type": "Point",
                "coordinates": [
                    31.02475753003994,
                    49.10155561599597,
                    0
                ]
            },
            "properties": {
                "name": "Mestion"
            }
        },
        {
            "type": "Feature",
            "geometry": {
                "type": "Point",
                "coordinates": [
                    -7.160117206921233,
                    30.82237273345059,
                    0
                ]
            },
            "properties": {
                "name": "Firbelk"
            }
        },
        {
            "type": "Feature",
            "geometry": {
                "type": "Point",
                "coordinates": [
                    -2.825002882042507,
                    30.80600948896067,
                    0
                ]
            },
            "properties": {
                "name": "Smithy"
            }
        },
        {
            "type": "Feature",
            "geometry": {
                "type": "Point",
                "coordinates": [
                    1.478300218227369,
                    22.07124321268532,
                    0
                ]
            },
            "properties": {
                "name": "Sanis"
            }
        },
        {
            "type": "Feature",
            "geometry": {
                "type": "Point",
                "coordinates": [
                    1.490724023120307,
                    19.27989890510943,
                    0
                ]
            },
            "properties": {
                "name": "Mothworm"
            }
        },
        {
            "type": "Feature",
            "geometry": {
                "type": "Point",
                "coordinates": [
                    -17.36960048995114,
                    18.79831318720401,
                    0
                ]
            },
            "properties": {
                "name": "Pelageon"
            }
        }
    ]
}